[
  {
    "title": "創辦人",
    "lat": 25.033,
    "lng": 121.565,
    "category": "culture",
    "region": "north",
    "link": "/culture/%E5%89%B5%E8%BE%A6%E4%BA%BA",
    "desc": "探索台灣的文化與故事",
    "city": "台北"
  },
  {
    "title": "台灣官方網站資源重寫",
    "lat": 25.029856,
    "lng": 121.56802,
    "category": "culture",
    "region": "north",
    "link": "/culture/%E5%8F%B0%E7%81%A3%E5%AE%98%E6%96%B9%E7%B6%B2%E7%AB%99%E8%B3%87%E6%BA%90%E9%87%8D%E5%AF%AB",
    "desc": "探索台灣的文化與故事",
    "city": "台北"
  },
  {
    "title": "台灣傳統藝術",
    "lat": 22.996,
    "lng": 120.161,
    "category": "art",
    "region": "south",
    "link": "/art/%E5%8F%B0%E7%81%A3%E5%82%B3%E7%B5%B1%E8%97%9D%E8%A1%93",
    "desc": "探索台灣的文化與故事",
    "city": "台南"
  },
  {
    "title": "台灣原住民當代藝術",
    "lat": 25.032918,
    "lng": 121.572935,
    "category": "art",
    "region": "north",
    "link": "/art/%E5%8F%B0%E7%81%A3%E5%8E%9F%E4%BD%8F%E6%B0%91%E7%95%B6%E4%BB%A3%E8%97%9D%E8%A1%93",
    "desc": "探索台灣的文化與故事",
    "city": "台北"
  },
  {
    "title": "台灣實驗與新媒體藝術",
    "lat": 25.037532,
    "lng": 121.557964,
    "category": "art",
    "region": "north",
    "link": "/art/%E5%8F%B0%E7%81%A3%E5%AF%A6%E9%A9%97%E8%88%87%E6%96%B0%E5%AA%92%E9%AB%94%E8%97%9D%E8%A1%93",
    "desc": "探索台灣的文化與故事",
    "city": "台北"
  },
  {
    "title": "台灣建築",
    "lat": 24.148,
    "lng": 120.674,
    "category": "culture",
    "region": "central",
    "link": "/culture/%E5%8F%B0%E7%81%A3%E5%BB%BA%E7%AF%89",
    "desc": "探索台灣的文化與故事",
    "city": "台中"
  },
  {
    "title": "台灣水彩畫的百年流變",
    "lat": 24.804,
    "lng": 120.969,
    "category": "culture",
    "region": "north",
    "link": "/culture/%E5%8F%B0%E7%81%A3%E6%B0%B4%E5%BD%A9%E7%95%AB%E7%9A%84%E7%99%BE%E5%B9%B4%E6%B5%81%E8%AE%8A",
    "desc": "探索台灣的文化與故事",
    "city": "新竹"
  },
  {
    "title": "台灣現代詩",
    "lat": 24.081,
    "lng": 120.539,
    "category": "culture",
    "region": "central",
    "link": "/culture/%E5%8F%B0%E7%81%A3%E7%8F%BE%E4%BB%A3%E8%A9%A9",
    "desc": "探索台灣的文化與故事",
    "city": "彰化"
  },
  {
    "title": "台灣當代雕塑發展",
    "lat": 25.034967,
    "lng": 121.571607,
    "category": "culture",
    "region": "north",
    "link": "/culture/%E5%8F%B0%E7%81%A3%E7%95%B6%E4%BB%A3%E9%9B%95%E5%A1%91%E7%99%BC%E5%B1%95",
    "desc": "探索台灣的文化與故事",
    "city": "台北"
  },
  {
    "title": "台灣策展人與藝術文化建構",
    "lat": 25.029746,
    "lng": 121.56956,
    "category": "culture",
    "region": "north",
    "link": "/culture/%E5%8F%B0%E7%81%A3%E7%AD%96%E5%B1%95%E4%BA%BA%E8%88%87%E8%97%9D%E8%A1%93%E6%96%87%E5%8C%96%E5%BB%BA%E6%A7%8B",
    "desc": "探索台灣的文化與故事",
    "city": "台北"
  },
  {
    "title": "新媒體藝術",
    "lat": 25.031475,
    "lng": 121.571056,
    "category": "art",
    "region": "north",
    "link": "/art/%E6%96%B0%E5%AA%92%E9%AB%94%E8%97%9D%E8%A1%93",
    "desc": "探索台灣的文化與故事",
    "city": "台北"
  },
  {
    "title": "當代藝術",
    "lat": 25.026059,
    "lng": 121.557599,
    "category": "art",
    "region": "north",
    "link": "/art/%E7%95%B6%E4%BB%A3%E8%97%9D%E8%A1%93",
    "desc": "探索台灣的文化與故事",
    "city": "台北"
  },
  {
    "title": "金馬賓館當代美術館",
    "lat": 22.627,
    "lng": 120.301,
    "category": "culture",
    "region": "south",
    "link": "/culture/%E9%87%91%E9%A6%AC%E8%B3%93%E9%A4%A8%E7%95%B6%E4%BB%A3%E7%BE%8E%E8%A1%93%E9%A4%A8",
    "desc": "探索台灣的文化與故事",
    "city": "高雄"
  },
  {
    "title": "人間雜誌",
    "lat": 24.994,
    "lng": 121.301,
    "category": "culture",
    "region": "north",
    "link": "/culture/%E4%BA%BA%E9%96%93%E9%9B%9C%E8%AA%8C",
    "desc": "探索台灣的文化與故事",
    "city": "桃園"
  },
  {
    "title": "台灣原住民文化",
    "lat": 24.158,
    "lng": 121.621,
    "category": "culture",
    "region": "east",
    "link": "/culture/原住民族文化",
    "desc": "探索台灣的文化與故事",
    "city": "花蓮"
  },
  {
    "title": "台灣原住民族16族文化地圖",
    "lat": 22.682,
    "lng": 120.484,
    "category": "culture",
    "region": "south",
    "link": "/culture/原住民族文化",
    "desc": "探索台灣的文化與故事",
    "city": "屏東"
  },
  {
    "title": "台灣夜市文化與小吃風情",
    "lat": 25.088,
    "lng": 121.524,
    "category": "food",
    "region": "north",
    "link": "/food/夜市文化",
    "desc": "探索台灣的文化與故事",
    "city": "台北"
  },
  {
    "title": "台灣感性",
    "lat": 25.031753,
    "lng": 121.562179,
    "category": "culture",
    "region": "north",
    "link": "/culture/%E5%8F%B0%E7%81%A3%E6%84%9F%E6%80%A7",
    "desc": "探索台灣的文化與故事",
    "city": "台北"
  },
  {
    "title": "台灣文化創意園區發展",
    "lat": 22.625617,
    "lng": 120.276813,
    "category": "culture",
    "region": "south",
    "link": "/culture/%E5%8F%B0%E7%81%A3%E6%96%87%E5%8C%96%E5%89%B5%E6%84%8F%E5%9C%92%E5%8D%80%E7%99%BC%E5%B1%95",
    "desc": "探索台灣的文化與故事",
    "city": "高雄"
  },
  {
    "title": "台灣老街文化與商業街區",
    "lat": 25.109,
    "lng": 121.845,
    "category": "culture",
    "region": "north",
    "link": "/culture/%E5%8F%B0%E7%81%A3%E8%80%81%E8%A1%97%E6%96%87%E5%8C%96%E8%88%87%E5%95%86%E6%A5%AD%E8%A1%97%E5%8D%80",
    "desc": "探索台灣的文化與故事",
    "city": "新北"
  },
  {
    "title": "台灣茶道與生活美學",
    "lat": 23.51,
    "lng": 120.7,
    "category": "lifestyle",
    "region": "south",
    "link": "/lifestyle/%E5%8F%B0%E7%81%A3%E8%8C%B6%E9%81%93%E8%88%87%E7%94%9F%E6%B4%BB%E7%BE%8E%E5%AD%B8",
    "desc": "探索台灣的文化與故事",
    "city": "嘉義"
  },
  {
    "title": "台灣街頭藝術與塗鴉文化",
    "lat": 25.037659,
    "lng": 121.570422,
    "category": "culture",
    "region": "north",
    "link": "/culture/%E5%8F%B0%E7%81%A3%E8%A1%97%E9%A0%AD%E8%97%9D%E8%A1%93%E8%88%87%E5%A1%97%E9%B4%89%E6%96%87%E5%8C%96",
    "desc": "探索台灣的文化與故事",
    "city": "台北"
  },
  {
    "title": "台灣製香文化與香腳原鄉",
    "lat": 24.055,
    "lng": 120.437,
    "category": "culture",
    "region": "central",
    "link": "/culture/%E5%8F%B0%E7%81%A3%E8%A3%BD%E9%A6%99%E6%96%87%E5%8C%96%E8%88%87%E9%A6%99%E8%85%B3%E5%8E%9F%E9%84%89",
    "desc": "探索台灣的文化與故事",
    "city": "彰化"
  },
  {
    "title": "台灣諧音禁忌文化",
    "lat": 24.999172,
    "lng": 121.29727,
    "category": "culture",
    "region": "north",
    "link": "/culture/%E5%8F%B0%E7%81%A3%E8%AB%A7%E9%9F%B3%E7%A6%81%E5%BF%8C%E6%96%87%E5%8C%96",
    "desc": "探索台灣的文化與故事",
    "city": "桃園"
  },
  {
    "title": "客家文化與語言",
    "lat": 22.687659,
    "lng": 120.487506,
    "category": "culture",
    "region": "south",
    "link": "/culture/族群（閩南客家原住民外省新住民）",
    "desc": "探索台灣的文化與故事",
    "city": "屏東"
  },
  {
    "title": "族群（閩南客家原住民外省新住民）",
    "lat": 24.996278,
    "lng": 121.303275,
    "category": "culture",
    "region": "north",
    "link": "/culture/原住民族文化",
    "desc": "探索台灣的文化與故事",
    "city": "桃園"
  },
  {
    "title": "澎湖民俗文化",
    "lat": 23.571,
    "lng": 119.579,
    "category": "culture",
    "region": "islands",
    "link": "/culture/%E6%BE%8E%E6%B9%96%E6%B0%91%E4%BF%97%E6%96%87%E5%8C%96",
    "desc": "探索台灣的文化與故事",
    "city": "澎湖"
  },
  {
    "title": "關聖帝君信仰",
    "lat": 25.033919,
    "lng": 121.560643,
    "category": "culture",
    "region": "north",
    "link": "/culture/%E9%97%9C%E8%81%96%E5%B8%9D%E5%90%9B%E4%BF%A1%E4%BB%B0",
    "desc": "探索台灣的文化與故事",
    "city": "台北"
  },
  {
    "title": "黃金時代的餘韻：台灣茶文化的流變與工藝",
    "lat": 23.508566,
    "lng": 120.707172,
    "category": "culture",
    "region": "south",
    "link": "/culture/%E9%BB%83%E9%87%91%E6%99%82%E4%BB%A3%E7%9A%84%E9%A4%98%E9%9F%BB%EF%BC%9A%E5%8F%B0%E7%81%A3%E8%8C%B6%E6%96%87%E5%8C%96%E7%9A%84%E6%B5%81%E8%AE%8A%E8%88%87%E5%B7%A5%E8%97%9D",
    "desc": "探索台灣的文化與故事",
    "city": "嘉義"
  },
  {
    "title": "台灣中小企業與隱形冠軍",
    "lat": 24.07724,
    "lng": 120.53527,
    "category": "culture",
    "region": "central",
    "link": "/culture/%E5%8F%B0%E7%81%A3%E4%B8%AD%E5%B0%8F%E4%BC%81%E6%A5%AD%E8%88%87%E9%9A%B1%E5%BD%A2%E5%86%A0%E8%BB%8D",
    "desc": "探索台灣的文化與故事",
    "city": "彰化"
  },
  {
    "title": "台灣企業：中鋼",
    "lat": 22.621378,
    "lng": 120.305028,
    "category": "culture",
    "region": "south",
    "link": "/culture/%E5%8F%B0%E7%81%A3%E4%BC%81%E6%A5%AD%EF%BC%9A%E4%B8%AD%E9%8B%BC",
    "desc": "探索台灣的文化與故事",
    "city": "高雄"
  },
  {
    "title": "台灣企業：台泥",
    "lat": 22.988056,
    "lng": 120.157498,
    "category": "culture",
    "region": "south",
    "link": "/culture/%E5%8F%B0%E7%81%A3%E4%BC%81%E6%A5%AD%EF%BC%9A%E5%8F%B0%E6%B3%A5",
    "desc": "探索台灣的文化與故事",
    "city": "台南"
  },
  {
    "title": "台灣企業：台積電",
    "lat": 24.806231,
    "lng": 120.973249,
    "category": "culture",
    "region": "north",
    "link": "/culture/%E5%8F%B0%E7%81%A3%E4%BC%81%E6%A5%AD%EF%BC%9A%E5%8F%B0%E7%A9%8D%E9%9B%BB",
    "desc": "探索台灣的文化與故事",
    "city": "新竹"
  },
  {
    "title": "台灣企業：奇美實業",
    "lat": 22.935,
    "lng": 120.226,
    "category": "culture",
    "region": "south",
    "link": "/culture/%E5%8F%B0%E7%81%A3%E4%BC%81%E6%A5%AD%EF%BC%9A%E5%A5%87%E7%BE%8E%E5%AF%A6%E6%A5%AD",
    "desc": "探索台灣的文化與故事",
    "city": "台南"
  },
  {
    "title": "台灣企業：宏碁",
    "lat": 24.99615,
    "lng": 121.30297,
    "category": "culture",
    "region": "north",
    "link": "/culture/%E5%8F%B0%E7%81%A3%E4%BC%81%E6%A5%AD%EF%BC%9A%E5%AE%8F%E7%A2%81",
    "desc": "探索台灣的文化與故事",
    "city": "桃園"
  },
  {
    "title": "台灣企業：巨大機械",
    "lat": 25.040386,
    "lng": 121.570893,
    "category": "culture",
    "region": "north",
    "link": "/culture/%E5%8F%B0%E7%81%A3%E4%BC%81%E6%A5%AD%EF%BC%9A%E5%B7%A8%E5%A4%A7%E6%A9%9F%E6%A2%B0",
    "desc": "探索台灣的文化與故事",
    "city": "台北"
  },
  {
    "title": "台灣企業：廣達電腦",
    "lat": 25.039354,
    "lng": 121.570834,
    "category": "culture",
    "region": "north",
    "link": "/culture/%E5%8F%B0%E7%81%A3%E4%BC%81%E6%A5%AD%EF%BC%9A%E5%BB%A3%E9%81%94%E9%9B%BB%E8%85%A6",
    "desc": "探索台灣的文化與故事",
    "city": "台北"
  },
  {
    "title": "台灣企業：日月光半導體",
    "lat": 22.629069,
    "lng": 120.300815,
    "category": "culture",
    "region": "south",
    "link": "/culture/%E5%8F%B0%E7%81%A3%E4%BC%81%E6%A5%AD%EF%BC%9A%E6%97%A5%E6%9C%88%E5%85%89%E5%8D%8A%E5%B0%8E%E9%AB%94",
    "desc": "探索台灣的文化與故事",
    "city": "高雄"
  },
  {
    "title": "台灣企業：玉山金控",
    "lat": 23.47,
    "lng": 120.957,
    "category": "culture",
    "region": "central",
    "link": "/culture/%E5%8F%B0%E7%81%A3%E4%BC%81%E6%A5%AD%EF%BC%9A%E7%8E%89%E5%B1%B1%E9%87%91%E6%8E%A7",
    "desc": "探索台灣的文化與故事",
    "city": "南投"
  },
  {
    "title": "台灣企業：遠東集團",
    "lat": 25.012,
    "lng": 121.465,
    "category": "culture",
    "region": "north",
    "link": "/culture/%E5%8F%B0%E7%81%A3%E4%BC%81%E6%A5%AD%EF%BC%9A%E9%81%A0%E6%9D%B1%E9%9B%86%E5%9C%98",
    "desc": "探索台灣的文化與故事",
    "city": "新北"
  },
  {
    "title": "台灣企業：長春石化",
    "lat": 22.999,
    "lng": 120.227,
    "category": "culture",
    "region": "south",
    "link": "/culture/%E5%8F%B0%E7%81%A3%E4%BC%81%E6%A5%AD%EF%BC%9A%E9%95%B7%E6%98%A5%E7%9F%B3%E5%8C%96",
    "desc": "探索台灣的文化與故事",
    "city": "台南"
  },
  {
    "title": "夜市經濟學",
    "lat": 24.179,
    "lng": 120.647,
    "category": "food",
    "region": "central",
    "link": "/food/夜市文化",
    "desc": "探索台灣的文化與故事",
    "city": "台中"
  },
  {
    "title": "經濟奇蹟",
    "lat": 22.629947,
    "lng": 120.293482,
    "category": "economy",
    "region": "south",
    "link": "/economy/%E7%B6%93%E6%BF%9F%E5%A5%87%E8%B9%9F",
    "desc": "探索台灣的文化與故事",
    "city": "高雄"
  },
  {
    "title": "台灣咖啡產業",
    "lat": 23.513187,
    "lng": 120.692597,
    "category": "technology",
    "region": "south",
    "link": "/technology/%E5%8F%B0%E7%81%A3%E5%92%96%E5%95%A1%E7%94%A2%E6%A5%AD",
    "desc": "探索台灣的文化與故事",
    "city": "嘉義"
  },
  {
    "title": "台灣地方小吃地圖",
    "lat": 25.128,
    "lng": 121.739,
    "category": "food",
    "region": "north",
    "link": "/food/%E5%8F%B0%E7%81%A3%E5%9C%B0%E6%96%B9%E5%B0%8F%E5%90%83%E5%9C%B0%E5%9C%96",
    "desc": "探索台灣的文化與故事",
    "city": "基隆"
  },
  {
    "title": "台灣夜市小吃圖鑑",
    "lat": 25.044879,
    "lng": 121.577348,
    "category": "food",
    "region": "north",
    "link": "/food/夜市文化",
    "desc": "探索台灣的文化與故事",
    "city": "台北"
  },
  {
    "title": "台灣手路菜",
    "lat": 23.48,
    "lng": 120.449,
    "category": "culture",
    "region": "south",
    "link": "/culture/%E5%8F%B0%E7%81%A3%E6%89%8B%E8%B7%AF%E8%8F%9C",
    "desc": "探索台灣的文化與故事",
    "city": "嘉義"
  },
  {
    "title": "台灣新住民美食融合",
    "lat": 25.038604,
    "lng": 121.571656,
    "category": "food",
    "region": "north",
    "link": "/food/%E5%8F%B0%E7%81%A3%E6%96%B0%E4%BD%8F%E6%B0%91%E7%BE%8E%E9%A3%9F%E8%9E%8D%E5%90%88",
    "desc": "探索台灣的文化與故事",
    "city": "台北"
  },
  {
    "title": "台灣海鮮文化",
    "lat": 25.135298,
    "lng": 121.740806,
    "category": "culture",
    "region": "north",
    "link": "/culture/%E5%8F%B0%E7%81%A3%E6%B5%B7%E9%AE%AE%E6%96%87%E5%8C%96",
    "desc": "探索台灣的文化與故事",
    "city": "基隆"
  },
  {
    "title": "台灣米其林與精緻餐飲",
    "lat": 25.038443,
    "lng": 121.557829,
    "category": "culture",
    "region": "north",
    "link": "/culture/%E5%8F%B0%E7%81%A3%E7%B1%B3%E5%85%B6%E6%9E%97%E8%88%87%E7%B2%BE%E7%B7%BB%E9%A4%90%E9%A3%B2",
    "desc": "探索台灣的文化與故事",
    "city": "台北"
  },
  {
    "title": "台灣米食文化",
    "lat": 24.798939,
    "lng": 120.965028,
    "category": "culture",
    "region": "north",
    "link": "/culture/%E5%8F%B0%E7%81%A3%E7%B1%B3%E9%A3%9F%E6%96%87%E5%8C%96",
    "desc": "探索台灣的文化與故事",
    "city": "新竹"
  },
  {
    "title": "台灣辦桌文化",
    "lat": 23.006866,
    "lng": 120.225026,
    "category": "culture",
    "region": "south",
    "link": "/culture/%E5%8F%B0%E7%81%A3%E8%BE%A6%E6%A1%8C%E6%96%87%E5%8C%96",
    "desc": "探索台灣的文化與故事",
    "city": "台南"
  },
  {
    "title": "夜市文化",
    "lat": 25.085992,
    "lng": 121.52093,
    "category": "food",
    "region": "north",
    "link": "/food/夜市文化",
    "desc": "探索台灣的文化與故事",
    "city": "台北"
  },
  {
    "title": "客家飲食文化",
    "lat": 24.807476,
    "lng": 120.971681,
    "category": "culture",
    "region": "north",
    "link": "/culture/族群（閩南客家原住民外省新住民）",
    "desc": "探索台灣的文化與故事",
    "city": "新竹"
  },
  {
    "title": "牛肉麵",
    "lat": 25.038073,
    "lng": 121.560138,
    "category": "culture",
    "region": "north",
    "link": "/culture/%E7%89%9B%E8%82%89%E9%BA%B5",
    "desc": "探索台灣的文化與故事",
    "city": "台北"
  },
  {
    "title": "台北101",
    "lat": 25.032566,
    "lng": 121.566337,
    "category": "culture",
    "region": "north",
    "link": "/culture/%E5%8F%B0%E5%8C%97101",
    "desc": "探索台灣的文化與故事",
    "city": "台北"
  },
  {
    "title": "台灣五大地形與地理結構",
    "lat": 23.471518,
    "lng": 120.958412,
    "category": "geography",
    "region": "central",
    "link": "/geography/%E5%8F%B0%E7%81%A3%E4%BA%94%E5%A4%A7%E5%9C%B0%E5%BD%A2%E8%88%87%E5%9C%B0%E7%90%86%E7%B5%90%E6%A7%8B",
    "desc": "探索台灣的文化與故事",
    "city": "南投"
  },
  {
    "title": "台灣交通運輸網絡",
    "lat": 25.030357,
    "lng": 121.570396,
    "category": "culture",
    "region": "north",
    "link": "/culture/%E5%8F%B0%E7%81%A3%E4%BA%A4%E9%80%9A%E9%81%8B%E8%BC%B8%E7%B6%B2%E7%B5%A1",
    "desc": "探索台灣的文化與故事",
    "city": "台北"
  },
  {
    "title": "台灣國家風景區系統",
    "lat": 23.863,
    "lng": 120.917,
    "category": "culture",
    "region": "central",
    "link": "/culture/%E5%8F%B0%E7%81%A3%E5%9C%8B%E5%AE%B6%E9%A2%A8%E6%99%AF%E5%8D%80%E7%B3%BB%E7%B5%B1",
    "desc": "探索台灣的文化與故事",
    "city": "南投"
  },
  {
    "title": "台灣島嶼地理特色與形成",
    "lat": 23.504617,
    "lng": 120.705883,
    "category": "geography",
    "region": "south",
    "link": "/geography/%E5%8F%B0%E7%81%A3%E5%B3%B6%E5%B6%BC%E5%9C%B0%E7%90%86%E7%89%B9%E8%89%B2%E8%88%87%E5%BD%A2%E6%88%90",
    "desc": "探索台灣的文化與故事",
    "city": "嘉義"
  },
  {
    "title": "台灣板塊運動與地震活動",
    "lat": 25.037918,
    "lng": 121.558735,
    "category": "culture",
    "region": "north",
    "link": "/culture/%E5%8F%B0%E7%81%A3%E6%9D%BF%E5%A1%8A%E9%81%8B%E5%8B%95%E8%88%87%E5%9C%B0%E9%9C%87%E6%B4%BB%E5%8B%95",
    "desc": "探索台灣的文化與故事",
    "city": "台北"
  },
  {
    "title": "台灣水庫與水資源管理",
    "lat": 25.031278,
    "lng": 121.558101,
    "category": "culture",
    "region": "north",
    "link": "/culture/%E5%8F%B0%E7%81%A3%E6%B0%B4%E5%BA%AB%E8%88%87%E6%B0%B4%E8%B3%87%E6%BA%90%E7%AE%A1%E7%90%86",
    "desc": "探索台灣的文化與故事",
    "city": "台北"
  },
  {
    "title": "台灣河川系統與水文特色",
    "lat": 25.17,
    "lng": 121.44,
    "category": "culture",
    "region": "north",
    "link": "/culture/%E5%8F%B0%E7%81%A3%E6%B2%B3%E5%B7%9D%E7%B3%BB%E7%B5%B1%E8%88%87%E6%B0%B4%E6%96%87%E7%89%B9%E8%89%B2",
    "desc": "探索台灣的文化與故事",
    "city": "新北"
  },
  {
    "title": "台灣海岸地形與海洋地景",
    "lat": 23.471487,
    "lng": 120.950953,
    "category": "culture",
    "region": "central",
    "link": "/culture/%E5%8F%B0%E7%81%A3%E6%B5%B7%E5%B2%B8%E5%9C%B0%E5%BD%A2%E8%88%87%E6%B5%B7%E6%B4%8B%E5%9C%B0%E6%99%AF",
    "desc": "探索台灣的文化與故事",
    "city": "南投"
  },
  {
    "title": "台灣溫泉地景",
    "lat": 22.695,
    "lng": 121.032,
    "category": "culture",
    "region": "east",
    "link": "/culture/%E5%8F%B0%E7%81%A3%E6%BA%AB%E6%B3%89%E5%9C%B0%E6%99%AF",
    "desc": "探索台灣的文化與故事",
    "city": "台東"
  },
  {
    "title": "台灣生態多樣性熱點",
    "lat": 23.471661,
    "lng": 120.953687,
    "category": "culture",
    "region": "central",
    "link": "/culture/%E5%8F%B0%E7%81%A3%E7%94%9F%E6%85%8B%E5%A4%9A%E6%A8%A3%E6%80%A7%E7%86%B1%E9%BB%9E",
    "desc": "探索台灣的文化與故事",
    "city": "南投"
  },
  {
    "title": "台灣農業地景與產業分布",
    "lat": 24.078228,
    "lng": 120.535715,
    "category": "technology",
    "region": "central",
    "link": "/technology/%E5%8F%B0%E7%81%A3%E8%BE%B2%E6%A5%AD%E5%9C%B0%E6%99%AF%E8%88%87%E7%94%A2%E6%A5%AD%E5%88%86%E5%B8%83",
    "desc": "探索台灣的文化與故事",
    "city": "彰化"
  },
  {
    "title": "台灣都市發展與城鄉差距",
    "lat": 25.03709,
    "lng": 121.568026,
    "category": "culture",
    "region": "north",
    "link": "/culture/%E5%8F%B0%E7%81%A3%E9%83%BD%E5%B8%82%E7%99%BC%E5%B1%95%E8%88%87%E5%9F%8E%E9%84%89%E5%B7%AE%E8%B7%9D",
    "desc": "探索台灣的文化與故事",
    "city": "台北"
  },
  {
    "title": "地形與地質",
    "lat": 23.469635,
    "lng": 120.955045,
    "category": "culture",
    "region": "central",
    "link": "/culture/%E5%9C%B0%E5%BD%A2%E8%88%87%E5%9C%B0%E8%B3%AA",
    "desc": "探索台灣的文化與故事",
    "city": "南投"
  },
  {
    "title": "城市特色與區域文化",
    "lat": 25.033191,
    "lng": 121.567353,
    "category": "culture",
    "region": "north",
    "link": "/culture/%E5%9F%8E%E5%B8%82%E7%89%B9%E8%89%B2%E8%88%87%E5%8D%80%E5%9F%9F%E6%96%87%E5%8C%96",
    "desc": "探索台灣的文化與故事",
    "city": "台北"
  },
  {
    "title": "離島與海洋文化",
    "lat": 23.57151,
    "lng": 119.576337,
    "category": "culture",
    "region": "islands",
    "link": "/culture/%E9%9B%A2%E5%B3%B6%E8%88%87%E6%B5%B7%E6%B4%8B%E6%96%87%E5%8C%96",
    "desc": "探索台灣的文化與故事",
    "city": "澎湖"
  },
  {
    "title": "二二八事件",
    "lat": 23.473588,
    "lng": 120.444306,
    "category": "culture",
    "region": "south",
    "link": "/culture/%E4%BA%8C%E4%BA%8C%E5%85%AB%E4%BA%8B%E4%BB%B6",
    "desc": "探索台灣的文化與故事",
    "city": "嘉義"
  },
  {
    "title": "台海危機與兩岸關係發展",
    "lat": 24.449,
    "lng": 118.377,
    "category": "culture",
    "region": "islands",
    "link": "/culture/%E5%8F%B0%E6%B5%B7%E5%8D%B1%E6%A9%9F%E8%88%87%E5%85%A9%E5%B2%B8%E9%97%9C%E4%BF%82%E7%99%BC%E5%B1%95",
    "desc": "探索台灣的文化與故事",
    "city": "金門"
  },
  {
    "title": "台灣森林開發史",
    "lat": 23.516289,
    "lng": 120.701447,
    "category": "culture",
    "region": "south",
    "link": "/culture/%E5%8F%B0%E7%81%A3%E6%A3%AE%E6%9E%97%E9%96%8B%E7%99%BC%E5%8F%B2",
    "desc": "探索台灣的文化與故事",
    "city": "嘉義"
  },
  {
    "title": "台灣民主轉型",
    "lat": 25.036,
    "lng": 121.522,
    "category": "culture",
    "region": "north",
    "link": "/culture/%E5%8F%B0%E7%81%A3%E6%B0%91%E4%B8%BB%E8%BD%89%E5%9E%8B",
    "desc": "探索台灣的文化與故事",
    "city": "台北"
  },
  {
    "title": "台灣海洋貿易史",
    "lat": 22.993807,
    "lng": 120.153156,
    "category": "culture",
    "region": "south",
    "link": "/culture/%E5%8F%B0%E7%81%A3%E6%B5%B7%E6%B4%8B%E8%B2%BF%E6%98%93%E5%8F%B2",
    "desc": "探索台灣的文化與故事",
    "city": "台南"
  },
  {
    "title": "台灣眷村歷史",
    "lat": 25.034905,
    "lng": 121.560133,
    "category": "history",
    "region": "north",
    "link": "/history/%E5%8F%B0%E7%81%A3%E7%9C%B7%E6%9D%91%E6%AD%B7%E5%8F%B2",
    "desc": "探索台灣的文化與故事",
    "city": "台北"
  },
  {
    "title": "台灣鐵道史",
    "lat": 24.153723,
    "lng": 120.677534,
    "category": "culture",
    "region": "central",
    "link": "/culture/%E5%8F%B0%E7%81%A3%E9%90%B5%E9%81%93%E5%8F%B2",
    "desc": "探索台灣的文化與故事",
    "city": "台中"
  },
  {
    "title": "國民政府遷台與戰後重建",
    "lat": 25.029399,
    "lng": 121.563009,
    "category": "culture",
    "region": "north",
    "link": "/culture/%E5%9C%8B%E6%B0%91%E6%94%BF%E5%BA%9C%E9%81%B7%E5%8F%B0%E8%88%87%E6%88%B0%E5%BE%8C%E9%87%8D%E5%BB%BA",
    "desc": "探索台灣的文化與故事",
    "city": "台北"
  },
  {
    "title": "日治時期",
    "lat": 22.624775,
    "lng": 120.297083,
    "category": "culture",
    "region": "south",
    "link": "/culture/%E6%97%A5%E6%B2%BB%E6%99%82%E6%9C%9F",
    "desc": "探索台灣的文化與故事",
    "city": "高雄"
  },
  {
    "title": "淡江中學：一座校園，如何濃縮台灣近代教育史",
    "lat": 25.170971,
    "lng": 121.438263,
    "category": "culture",
    "region": "north",
    "link": "/culture/%E6%B7%A1%E6%B1%9F%E4%B8%AD%E5%AD%B8%EF%BC%9A%E4%B8%80%E5%BA%A7%E6%A0%A1%E5%9C%92%EF%BC%8C%E5%A6%82%E4%BD%95%E6%BF%83%E7%B8%AE%E5%8F%B0%E7%81%A3%E8%BF%91%E4%BB%A3%E6%95%99%E8%82%B2%E5%8F%B2",
    "desc": "探索台灣的文化與故事",
    "city": "新北"
  },
  {
    "title": "清治時期",
    "lat": 25.16697,
    "lng": 121.436587,
    "category": "culture",
    "region": "north",
    "link": "/culture/%E6%B8%85%E6%B2%BB%E6%99%82%E6%9C%9F",
    "desc": "探索台灣的文化與故事",
    "city": "新北"
  },
  {
    "title": "源興牛與牛肉湯的歷史",
    "lat": 22.996734,
    "lng": 120.224901,
    "category": "history",
    "region": "south",
    "link": "/history/%E6%BA%90%E8%88%88%E7%89%9B%E8%88%87%E7%89%9B%E8%82%89%E6%B9%AF%E7%9A%84%E6%AD%B7%E5%8F%B2",
    "desc": "探索台灣的文化與故事",
    "city": "台南"
  },
  {
    "title": "荷西明鄭時期",
    "lat": 25.166376,
    "lng": 121.438775,
    "category": "culture",
    "region": "north",
    "link": "/culture/%E8%8D%B7%E8%A5%BF%E6%98%8E%E9%84%AD%E6%99%82%E6%9C%9F",
    "desc": "探索台灣的文化與故事",
    "city": "新北"
  },
  {
    "title": "beef-noodle-soup",
    "lat": 25.039609,
    "lng": 121.563502,
    "category": "culture",
    "region": "north",
    "link": "/culture/beef-noodle-soup",
    "desc": "探索台灣的文化與故事",
    "city": "台北"
  },
  {
    "title": "night-market-culture",
    "lat": 25.086693,
    "lng": 121.529866,
    "category": "culture",
    "region": "north",
    "link": "/culture/night-market-culture",
    "desc": "探索台灣的文化與故事",
    "city": "台北"
  },
  {
    "title": "japanese-colonial-era",
    "lat": 22.629735,
    "lng": 120.29796,
    "category": "culture",
    "region": "south",
    "link": "/culture/japanese-colonial-era",
    "desc": "探索台灣的文化與故事",
    "city": "高雄"
  },
  {
    "title": "convenience-store-culture",
    "lat": 25.033278,
    "lng": 121.557601,
    "category": "culture",
    "region": "north",
    "link": "/culture/convenience-store-culture",
    "desc": "探索台灣的文化與故事",
    "city": "台北"
  },
  {
    "title": "national-parks",
    "lat": 23.477411,
    "lng": 120.952523,
    "category": "culture",
    "region": "central",
    "link": "/culture/national-parks",
    "desc": "探索台灣的文化與故事",
    "city": "南投"
  },
  {
    "title": "台灣交通系統",
    "lat": 25.040107,
    "lng": 121.56772,
    "category": "culture",
    "region": "north",
    "link": "/culture/%E5%8F%B0%E7%81%A3%E4%BA%A4%E9%80%9A%E7%B3%BB%E7%B5%B1",
    "desc": "探索台灣的文化與故事",
    "city": "台北"
  },
  {
    "title": "台灣便利商店文化",
    "lat": 25.034664,
    "lng": 121.559636,
    "category": "culture",
    "region": "north",
    "link": "/culture/%E5%8F%B0%E7%81%A3%E4%BE%BF%E5%88%A9%E5%95%86%E5%BA%97%E6%96%87%E5%8C%96",
    "desc": "探索台灣的文化與故事",
    "city": "台北"
  },
  {
    "title": "台灣公園與日常休閒",
    "lat": 25.038539,
    "lng": 121.564486,
    "category": "culture",
    "region": "north",
    "link": "/culture/%E5%8F%B0%E7%81%A3%E5%85%AC%E5%9C%92%E8%88%87%E6%97%A5%E5%B8%B8%E4%BC%91%E9%96%92",
    "desc": "探索台灣的文化與故事",
    "city": "台北"
  },
  {
    "title": "台灣咖啡文化",
    "lat": 23.503834,
    "lng": 120.695778,
    "category": "culture",
    "region": "south",
    "link": "/culture/%E5%8F%B0%E7%81%A3%E5%92%96%E5%95%A1%E6%96%87%E5%8C%96",
    "desc": "探索台灣的文化與故事",
    "city": "嘉義"
  },
  {
    "title": "台灣回收與資源循環文化",
    "lat": 25.039163,
    "lng": 121.567814,
    "category": "culture",
    "region": "north",
    "link": "/culture/%E5%8F%B0%E7%81%A3%E5%9B%9E%E6%94%B6%E8%88%87%E8%B3%87%E6%BA%90%E5%BE%AA%E7%92%B0%E6%96%87%E5%8C%96",
    "desc": "探索台灣的文化與故事",
    "city": "台北"
  },
  {
    "title": "台灣垃圾車音樂",
    "lat": 25.03465,
    "lng": 121.566539,
    "category": "music",
    "region": "north",
    "link": "/music/流行音樂與金曲獎",
    "desc": "探索台灣的文化與故事",
    "city": "台北"
  },
  {
    "title": "台灣捷運發展史",
    "lat": 25.037232,
    "lng": 121.569197,
    "category": "culture",
    "region": "north",
    "link": "/culture/%E5%8F%B0%E7%81%A3%E6%8D%B7%E9%81%8B%E7%99%BC%E5%B1%95%E5%8F%B2",
    "desc": "探索台灣的文化與故事",
    "city": "台北"
  },
  {
    "title": "台灣教育制度",
    "lat": 25.036778,
    "lng": 121.560908,
    "category": "culture",
    "region": "north",
    "link": "/culture/%E5%8F%B0%E7%81%A3%E6%95%99%E8%82%B2%E5%88%B6%E5%BA%A6",
    "desc": "探索台灣的文化與故事",
    "city": "台北"
  },
  {
    "title": "台灣機車文化",
    "lat": 25.028803,
    "lng": 121.56036,
    "category": "culture",
    "region": "north",
    "link": "/culture/%E5%8F%B0%E7%81%A3%E6%A9%9F%E8%BB%8A%E6%96%87%E5%8C%96",
    "desc": "探索台灣的文化與故事",
    "city": "台北"
  },
  {
    "title": "台灣騎樓文化與街景",
    "lat": 25.029188,
    "lng": 121.56998,
    "category": "culture",
    "region": "north",
    "link": "/culture/%E5%8F%B0%E7%81%A3%E9%A8%8E%E6%A8%93%E6%96%87%E5%8C%96%E8%88%87%E8%A1%97%E6%99%AF",
    "desc": "探索台灣的文化與故事",
    "city": "台北"
  },
  {
    "title": "夜生活與KTV文化",
    "lat": 25.032874,
    "lng": 121.572325,
    "category": "culture",
    "region": "north",
    "link": "/culture/%E5%A4%9C%E7%94%9F%E6%B4%BB%E8%88%87KTV%E6%96%87%E5%8C%96",
    "desc": "探索台灣的文化與故事",
    "city": "台北"
  },
  {
    "title": "宗教與民間信仰",
    "lat": 25.036097,
    "lng": 121.558488,
    "category": "culture",
    "region": "north",
    "link": "/culture/%E5%AE%97%E6%95%99%E8%88%87%E6%B0%91%E9%96%93%E4%BF%A1%E4%BB%B0",
    "desc": "探索台灣的文化與故事",
    "city": "台北"
  },
  {
    "title": "小綠人",
    "lat": 25.032649,
    "lng": 121.569102,
    "category": "culture",
    "region": "north",
    "link": "/culture/%E5%B0%8F%E7%B6%A0%E4%BA%BA",
    "desc": "探索台灣的文化與故事",
    "city": "台北"
  },
  {
    "title": "溫泉文化",
    "lat": 22.661,
    "lng": 121.497,
    "category": "culture",
    "region": "east",
    "link": "/culture/%E6%BA%AB%E6%B3%89%E6%96%87%E5%8C%96",
    "desc": "探索台灣的文化與故事",
    "city": "台東"
  },
  {
    "title": "台灣原住民音樂傳統",
    "lat": 22.689031,
    "lng": 120.489188,
    "category": "music",
    "region": "south",
    "link": "/music/流行音樂與金曲獎",
    "desc": "探索台灣的文化與故事",
    "city": "屏東"
  },
  {
    "title": "台灣國樂",
    "lat": 25.026461,
    "lng": 121.564132,
    "category": "culture",
    "region": "north",
    "link": "/culture/%E5%8F%B0%E7%81%A3%E5%9C%8B%E6%A8%82",
    "desc": "探索台灣的文化與故事",
    "city": "台北"
  },
  {
    "title": "台灣樂器製造",
    "lat": 23.868236,
    "lng": 120.92359,
    "category": "culture",
    "region": "central",
    "link": "/culture/%E5%8F%B0%E7%81%A3%E6%A8%82%E5%99%A8%E8%A3%BD%E9%80%A0",
    "desc": "探索台灣的文化與故事",
    "city": "南投"
  },
  {
    "title": "台灣民歌運動",
    "lat": 25.025499,
    "lng": 121.562391,
    "category": "culture",
    "region": "north",
    "link": "/culture/%E5%8F%B0%E7%81%A3%E6%B0%91%E6%AD%8C%E9%81%8B%E5%8B%95",
    "desc": "探索台灣的文化與故事",
    "city": "台北"
  },
  {
    "title": "台灣獨立音樂場景演變",
    "lat": 25.02513,
    "lng": 121.569547,
    "category": "music",
    "region": "north",
    "link": "/music/流行音樂與金曲獎",
    "desc": "探索台灣的文化與故事",
    "city": "台北"
  },
  {
    "title": "台灣電子音樂與派對文化",
    "lat": 25.030602,
    "lng": 121.568414,
    "category": "culture",
    "region": "north",
    "link": "/culture/%E5%8F%B0%E7%81%A3%E9%9B%BB%E5%AD%90%E9%9F%B3%E6%A8%82%E8%88%87%E6%B4%BE%E5%B0%8D%E6%96%87%E5%8C%96",
    "desc": "探索台灣的文化與故事",
    "city": "台北"
  },
  {
    "title": "台灣音樂祭文化",
    "lat": 21.948,
    "lng": 120.803,
    "category": "culture",
    "region": "south",
    "link": "/culture/%E5%8F%B0%E7%81%A3%E9%9F%B3%E6%A8%82%E7%A5%AD%E6%96%87%E5%8C%96",
    "desc": "探索台灣的文化與故事",
    "city": "屏東"
  },
  {
    "title": "獨立音樂場景",
    "lat": 22.622985,
    "lng": 120.303032,
    "category": "music",
    "region": "south",
    "link": "/music/流行音樂與金曲獎",
    "desc": "探索台灣的文化與故事",
    "city": "高雄"
  },
  {
    "title": "台灣原住民生態智慧與環境保育",
    "lat": 23.992,
    "lng": 121.602,
    "category": "culture",
    "region": "east",
    "link": "/culture/原住民族文化",
    "desc": "探索台灣的文化與故事",
    "city": "花蓮"
  },
  {
    "title": "台灣山岳與登山文化",
    "lat": 23.467439,
    "lng": 120.955584,
    "category": "culture",
    "region": "central",
    "link": "/culture/%E5%8F%B0%E7%81%A3%E5%B1%B1%E5%B2%B3%E8%88%87%E7%99%BB%E5%B1%B1%E6%96%87%E5%8C%96",
    "desc": "探索台灣的文化與故事",
    "city": "南投"
  },
  {
    "title": "台灣島嶼博物學",
    "lat": 22.033,
    "lng": 121.549,
    "category": "culture",
    "region": "east",
    "link": "/culture/%E5%8F%B0%E7%81%A3%E5%B3%B6%E5%B6%BC%E5%8D%9A%E7%89%A9%E5%AD%B8",
    "desc": "探索台灣的文化與故事",
    "city": "台東"
  },
  {
    "title": "台灣森林生態系",
    "lat": 23.463855,
    "lng": 120.955205,
    "category": "culture",
    "region": "central",
    "link": "/culture/%E5%8F%B0%E7%81%A3%E6%A3%AE%E6%9E%97%E7%94%9F%E6%85%8B%E7%B3%BB",
    "desc": "探索台灣的文化與故事",
    "city": "南投"
  },
  {
    "title": "台灣氣候變遷與淨零轉型",
    "lat": 22.634696,
    "lng": 120.307446,
    "category": "culture",
    "region": "south",
    "link": "/culture/%E5%8F%B0%E7%81%A3%E6%B0%A3%E5%80%99%E8%AE%8A%E9%81%B7%E8%88%87%E6%B7%A8%E9%9B%B6%E8%BD%89%E5%9E%8B",
    "desc": "探索台灣的文化與故事",
    "city": "高雄"
  },
  {
    "title": "台灣海洋保育與挑戰",
    "lat": 22.338,
    "lng": 120.373,
    "category": "culture",
    "region": "south",
    "link": "/culture/%E5%8F%B0%E7%81%A3%E6%B5%B7%E6%B4%8B%E4%BF%9D%E8%82%B2%E8%88%87%E6%8C%91%E6%88%B0",
    "desc": "探索台灣的文化與故事",
    "city": "屏東"
  },
  {
    "title": "台灣海洋污染治理與保育挑戰",
    "lat": 22.33356,
    "lng": 120.38028,
    "category": "culture",
    "region": "south",
    "link": "/culture/%E5%8F%B0%E7%81%A3%E6%B5%B7%E6%B4%8B%E6%B1%A1%E6%9F%93%E6%B2%BB%E7%90%86%E8%88%87%E4%BF%9D%E8%82%B2%E6%8C%91%E6%88%B0",
    "desc": "探索台灣的文化與故事",
    "city": "屏東"
  },
  {
    "title": "台灣海洋生態",
    "lat": 22.026489,
    "lng": 121.556663,
    "category": "culture",
    "region": "east",
    "link": "/culture/%E5%8F%B0%E7%81%A3%E6%B5%B7%E6%B4%8B%E7%94%9F%E6%85%8B",
    "desc": "探索台灣的文化與故事",
    "city": "台東"
  },
  {
    "title": "台灣海洋生態與珊瑚礁保育",
    "lat": 21.948103,
    "lng": 120.798515,
    "category": "culture",
    "region": "south",
    "link": "/culture/%E5%8F%B0%E7%81%A3%E6%B5%B7%E6%B4%8B%E7%94%9F%E6%85%8B%E8%88%87%E7%8F%8A%E7%91%9A%E7%A4%81%E4%BF%9D%E8%82%B2",
    "desc": "探索台灣的文化與故事",
    "city": "屏東"
  },
  {
    "title": "台灣溫泉與地熱",
    "lat": 22.665403,
    "lng": 121.499705,
    "category": "culture",
    "region": "east",
    "link": "/culture/%E5%8F%B0%E7%81%A3%E6%BA%AB%E6%B3%89%E8%88%87%E5%9C%B0%E7%86%B1",
    "desc": "探索台灣的文化與故事",
    "city": "台東"
  },
  {
    "title": "台灣石虎保育",
    "lat": 24.561,
    "lng": 120.821,
    "category": "culture",
    "region": "central",
    "link": "/culture/%E5%8F%B0%E7%81%A3%E7%9F%B3%E8%99%8E%E4%BF%9D%E8%82%B2",
    "desc": "探索台灣的文化與故事",
    "city": "苗栗"
  },
  {
    "title": "台灣穿山甲",
    "lat": 25.037723,
    "lng": 121.570151,
    "category": "culture",
    "region": "north",
    "link": "/culture/%E5%8F%B0%E7%81%A3%E7%A9%BF%E5%B1%B1%E7%94%B2",
    "desc": "探索台灣的文化與故事",
    "city": "台北"
  },
  {
    "title": "台灣高山生態系與冰河孑遺",
    "lat": 23.473188,
    "lng": 120.961747,
    "category": "culture",
    "region": "central",
    "link": "/culture/%E5%8F%B0%E7%81%A3%E9%AB%98%E5%B1%B1%E7%94%9F%E6%85%8B%E7%B3%BB%E8%88%87%E5%86%B0%E6%B2%B3%E5%AD%91%E9%81%BA",
    "desc": "探索台灣的文化與故事",
    "city": "南投"
  },
  {
    "title": "台灣黑熊",
    "lat": 25.028745,
    "lng": 121.568547,
    "category": "culture",
    "region": "north",
    "link": "/culture/%E5%8F%B0%E7%81%A3%E9%BB%91%E7%86%8A",
    "desc": "探索台灣的文化與故事",
    "city": "台北"
  },
  {
    "title": "國家公園",
    "lat": 24.154994,
    "lng": 121.617118,
    "category": "nature",
    "region": "east",
    "link": "/nature/國家公園",
    "desc": "探索台灣的文化與故事",
    "city": "花蓮"
  },
  {
    "title": "島嶼的山海之巔：台灣國家公園的生態與地景",
    "lat": 23.471494,
    "lng": 120.96255,
    "category": "nature",
    "region": "central",
    "link": "/nature/國家公園",
    "desc": "探索台灣的文化與故事",
    "city": "南投"
  },
  {
    "title": "特有種",
    "lat": 23.470356,
    "lng": 120.962883,
    "category": "culture",
    "region": "central",
    "link": "/culture/%E7%89%B9%E6%9C%89%E7%A8%AE",
    "desc": "探索台灣的文化與故事",
    "city": "南投"
  },
  {
    "title": "生態多樣性",
    "lat": 23.466578,
    "lng": 120.953481,
    "category": "culture",
    "region": "central",
    "link": "/culture/%E7%94%9F%E6%85%8B%E5%A4%9A%E6%A8%A3%E6%80%A7",
    "desc": "探索台灣的文化與故事",
    "city": "南投"
  },
  {
    "title": "臺灣的鯨豚",
    "lat": 23.998524,
    "lng": 121.604416,
    "category": "culture",
    "region": "east",
    "link": "/culture/%E8%87%BA%E7%81%A3%E7%9A%84%E9%AF%A8%E8%B1%9A",
    "desc": "探索台灣的文化與故事",
    "city": "花蓮"
  },
  {
    "title": "伍佰",
    "lat": 23.474674,
    "lng": 120.451466,
    "category": "culture",
    "region": "south",
    "link": "/culture/%E4%BC%8D%E4%BD%B0",
    "desc": "探索台灣的文化與故事",
    "city": "嘉義"
  },
  {
    "title": "吳哲宇",
    "lat": 25.032669,
    "lng": 121.557887,
    "category": "culture",
    "region": "north",
    "link": "/culture/%E5%90%B3%E5%93%B2%E5%AE%87",
    "desc": "探索台灣的文化與故事",
    "city": "台北"
  },
  {
    "title": "吳寶春",
    "lat": 22.68922,
    "lng": 120.485983,
    "category": "culture",
    "region": "south",
    "link": "/culture/%E5%90%B3%E5%AF%B6%E6%98%A5",
    "desc": "探索台灣的文化與故事",
    "city": "屏東"
  },
  {
    "title": "呂秀蓮",
    "lat": 25.001264,
    "lng": 121.307411,
    "category": "culture",
    "region": "north",
    "link": "/culture/%E5%91%82%E7%A7%80%E8%93%AE",
    "desc": "探索台灣的文化與故事",
    "city": "桃園"
  },
  {
    "title": "幾米",
    "lat": 24.752,
    "lng": 121.753,
    "category": "culture",
    "region": "north",
    "link": "/culture/%E5%B9%BE%E7%B1%B3",
    "desc": "探索台灣的文化與故事",
    "city": "宜蘭"
  },
  {
    "title": "戴資穎",
    "lat": 22.619864,
    "lng": 120.300382,
    "category": "culture",
    "region": "south",
    "link": "/culture/%E6%88%B4%E8%B3%87%E7%A9%8E",
    "desc": "探索台灣的文化與故事",
    "city": "高雄"
  },
  {
    "title": "李昂",
    "lat": 24.053076,
    "lng": 120.431953,
    "category": "culture",
    "region": "central",
    "link": "/culture/%E6%9D%8E%E6%98%82",
    "desc": "探索台灣的文化與故事",
    "city": "彰化"
  },
  {
    "title": "李智凱",
    "lat": 24.74669,
    "lng": 121.759162,
    "category": "culture",
    "region": "north",
    "link": "/culture/%E6%9D%8E%E6%99%BA%E5%87%B1",
    "desc": "探索台灣的文化與故事",
    "city": "宜蘭"
  },
  {
    "title": "李遠哲",
    "lat": 24.807886,
    "lng": 120.966233,
    "category": "culture",
    "region": "north",
    "link": "/culture/%E6%9D%8E%E9%81%A0%E5%93%B2",
    "desc": "探索台灣的文化與故事",
    "city": "新竹"
  },
  {
    "title": "杜聰明",
    "lat": 25.029899,
    "lng": 121.557866,
    "category": "culture",
    "region": "north",
    "link": "/culture/%E6%9D%9C%E8%81%B0%E6%98%8E",
    "desc": "探索台灣的文化與故事",
    "city": "台北"
  },
  {
    "title": "林書豪",
    "lat": 25.03973,
    "lng": 121.568861,
    "category": "culture",
    "region": "north",
    "link": "/culture/%E6%9E%97%E6%9B%B8%E8%B1%AA",
    "desc": "探索台灣的文化與故事",
    "city": "台北"
  },
  {
    "title": "林義傑",
    "lat": 25.033925,
    "lng": 121.564519,
    "category": "culture",
    "region": "north",
    "link": "/culture/%E6%9E%97%E7%BE%A9%E5%82%91",
    "desc": "探索台灣的文化與故事",
    "city": "台北"
  },
  {
    "title": "林義雄",
    "lat": 24.756294,
    "lng": 121.747414,
    "category": "culture",
    "region": "north",
    "link": "/culture/%E6%9E%97%E7%BE%A9%E9%9B%84",
    "desc": "探索台灣的文化與故事",
    "city": "宜蘭"
  },
  {
    "title": "楊德昌",
    "lat": 25.025677,
    "lng": 121.564756,
    "category": "culture",
    "region": "north",
    "link": "/culture/%E6%A5%8A%E5%BE%B7%E6%98%8C",
    "desc": "探索台灣的文化與故事",
    "city": "台北"
  },
  {
    "title": "白先勇",
    "lat": 25.026722,
    "lng": 121.56258,
    "category": "culture",
    "region": "north",
    "link": "/culture/%E7%99%BD%E5%85%88%E5%8B%87",
    "desc": "探索台灣的文化與故事",
    "city": "台北"
  },
  {
    "title": "盧廣仲",
    "lat": 22.992601,
    "lng": 120.231356,
    "category": "culture",
    "region": "south",
    "link": "/culture/%E7%9B%A7%E5%BB%A3%E4%BB%B2",
    "desc": "探索台灣的文化與故事",
    "city": "台南"
  },
  {
    "title": "莊智淵",
    "lat": 22.624479,
    "lng": 120.293074,
    "category": "culture",
    "region": "south",
    "link": "/culture/%E8%8E%8A%E6%99%BA%E6%B7%B5",
    "desc": "探索台灣的文化與故事",
    "city": "高雄"
  },
  {
    "title": "蔡明亮",
    "lat": 25.025963,
    "lng": 121.563133,
    "category": "culture",
    "region": "north",
    "link": "/culture/%E8%94%A1%E6%98%8E%E4%BA%AE",
    "desc": "探索台灣的文化與故事",
    "city": "台北"
  },
  {
    "title": "許文龍",
    "lat": 22.942309,
    "lng": 120.22674,
    "category": "culture",
    "region": "south",
    "link": "/culture/%E8%A8%B1%E6%96%87%E9%BE%8D",
    "desc": "探索台灣的文化與故事",
    "city": "台南"
  },
  {
    "title": "許芳宜",
    "lat": 24.745187,
    "lng": 121.760183,
    "category": "culture",
    "region": "north",
    "link": "/culture/%E8%A8%B1%E8%8A%B3%E5%AE%9C",
    "desc": "探索台灣的文化與故事",
    "city": "宜蘭"
  },
  {
    "title": "賴清德",
    "lat": 22.9953,
    "lng": 120.22408,
    "category": "culture",
    "region": "south",
    "link": "/culture/%E8%B3%B4%E6%B8%85%E5%BE%B7",
    "desc": "探索台灣的文化與故事",
    "city": "台南"
  },
  {
    "title": "郁永河",
    "lat": 25.164808,
    "lng": 121.432149,
    "category": "culture",
    "region": "north",
    "link": "/culture/%E9%83%81%E6%B0%B8%E6%B2%B3",
    "desc": "探索台灣的文化與故事",
    "city": "新北"
  },
  {
    "title": "郭婞淳",
    "lat": 22.756,
    "lng": 121.144,
    "category": "culture",
    "region": "east",
    "link": "/culture/%E9%83%AD%E5%A9%9E%E6%B7%B3",
    "desc": "探索台灣的文化與故事",
    "city": "台東"
  },
  {
    "title": "鄧雨賢",
    "lat": 24.98811,
    "lng": 121.295997,
    "category": "culture",
    "region": "north",
    "link": "/culture/%E9%84%A7%E9%9B%A8%E8%B3%A2",
    "desc": "探索台灣的文化與故事",
    "city": "桃園"
  },
  {
    "title": "鄭南榕",
    "lat": 25.033799,
    "lng": 121.568609,
    "category": "culture",
    "region": "north",
    "link": "/culture/%E9%84%AD%E5%8D%97%E6%A6%95",
    "desc": "探索台灣的文化與故事",
    "city": "台北"
  },
  {
    "title": "鍾理和",
    "lat": 22.630056,
    "lng": 120.29384,
    "category": "culture",
    "region": "south",
    "link": "/culture/%E9%8D%BE%E7%90%86%E5%92%8C",
    "desc": "探索台灣的文化與故事",
    "city": "高雄"
  },
  {
    "title": "陳樹菊",
    "lat": 22.751567,
    "lng": 121.136545,
    "category": "culture",
    "region": "east",
    "link": "/culture/%E9%99%B3%E6%A8%B9%E8%8F%8A",
    "desc": "探索台灣的文化與故事",
    "city": "台東"
  },
  {
    "title": "陳水扁",
    "lat": 25.030478,
    "lng": 121.566071,
    "category": "culture",
    "region": "north",
    "link": "/culture/%E9%99%B3%E6%B0%B4%E6%89%81",
    "desc": "探索台灣的文化與故事",
    "city": "台北"
  },
  {
    "title": "馬英九",
    "lat": 25.039115,
    "lng": 121.559239,
    "category": "culture",
    "region": "north",
    "link": "/culture/%E9%A6%AC%E8%8B%B1%E4%B9%9D",
    "desc": "探索台灣的文化與故事",
    "city": "台北"
  },
  {
    "title": "麟洋配",
    "lat": 25.036468,
    "lng": 121.557725,
    "category": "culture",
    "region": "north",
    "link": "/culture/%E9%BA%9F%E6%B4%8B%E9%85%8D",
    "desc": "探索台灣的文化與故事",
    "city": "台北"
  },
  {
    "title": "黃春明",
    "lat": 24.759738,
    "lng": 121.759359,
    "category": "culture",
    "region": "north",
    "link": "/culture/%E9%BB%83%E6%98%A5%E6%98%8E",
    "desc": "探索台灣的文化與故事",
    "city": "宜蘭"
  },
  {
    "title": "黃震南",
    "lat": 23.476251,
    "lng": 120.444235,
    "category": "culture",
    "region": "south",
    "link": "/culture/%E9%BB%83%E9%9C%87%E5%8D%97",
    "desc": "探索台灣的文化與故事",
    "city": "嘉義"
  },
  {
    "title": "齊柏林",
    "lat": 25.034849,
    "lng": 121.566525,
    "category": "culture",
    "region": "north",
    "link": "/culture/%E9%BD%8A%E6%9F%8F%E6%9E%97",
    "desc": "探索台灣的文化與故事",
    "city": "台北"
  },
  {
    "title": "動物園與展演動物倫理",
    "lat": 24.811693,
    "lng": 120.974294,
    "category": "culture",
    "region": "north",
    "link": "/culture/%E5%8B%95%E7%89%A9%E5%9C%92%E8%88%87%E5%B1%95%E6%BC%94%E5%8B%95%E7%89%A9%E5%80%AB%E7%90%86",
    "desc": "探索台灣的文化與故事",
    "city": "新竹"
  },
  {
    "title": "台灣原住民族土地正義與傳統領域",
    "lat": 24.164176,
    "lng": 121.622175,
    "category": "culture",
    "region": "east",
    "link": "/culture/原住民族文化",
    "desc": "探索台灣的文化與故事",
    "city": "花蓮"
  },
  {
    "title": "台灣同婚與性別平權",
    "lat": 25.027284,
    "lng": 121.567536,
    "category": "culture",
    "region": "north",
    "link": "/culture/%E5%8F%B0%E7%81%A3%E5%90%8C%E5%A9%9A%E8%88%87%E6%80%A7%E5%88%A5%E5%B9%B3%E6%AC%8A",
    "desc": "探索台灣的文化與故事",
    "city": "台北"
  },
  {
    "title": "台灣災難志工文化",
    "lat": 23.994962,
    "lng": 121.59746,
    "category": "culture",
    "region": "east",
    "link": "/culture/%E5%8F%B0%E7%81%A3%E7%81%BD%E9%9B%A3%E5%BF%97%E5%B7%A5%E6%96%87%E5%8C%96",
    "desc": "探索台灣的文化與故事",
    "city": "花蓮"
  },
  {
    "title": "台灣環境正義與鄰避爭議",
    "lat": 22.032042,
    "lng": 121.549023,
    "category": "culture",
    "region": "east",
    "link": "/culture/%E5%8F%B0%E7%81%A3%E7%92%B0%E5%A2%83%E6%AD%A3%E7%BE%A9%E8%88%87%E9%84%B0%E9%81%BF%E7%88%AD%E8%AD%B0",
    "desc": "探索台灣的文化與故事",
    "city": "台東"
  },
  {
    "title": "台灣社區與里文化",
    "lat": 25.032219,
    "lng": 121.568278,
    "category": "culture",
    "region": "north",
    "link": "/culture/%E5%8F%B0%E7%81%A3%E7%A4%BE%E5%8D%80%E8%88%87%E9%87%8C%E6%96%87%E5%8C%96",
    "desc": "探索台灣的文化與故事",
    "city": "台北"
  },
  {
    "title": "台灣長期照顧制度發展",
    "lat": 25.03145,
    "lng": 121.559465,
    "category": "culture",
    "region": "north",
    "link": "/culture/%E5%8F%B0%E7%81%A3%E9%95%B7%E6%9C%9F%E7%85%A7%E9%A1%A7%E5%88%B6%E5%BA%A6%E7%99%BC%E5%B1%95",
    "desc": "探索台灣的文化與故事",
    "city": "台北"
  },
  {
    "title": "環保與永續發展",
    "lat": 24.054263,
    "lng": 120.435704,
    "category": "culture",
    "region": "central",
    "link": "/culture/%E7%92%B0%E4%BF%9D%E8%88%87%E6%B0%B8%E7%BA%8C%E7%99%BC%E5%B1%95",
    "desc": "探索台灣的文化與故事",
    "city": "彰化"
  },
  {
    "title": "社會住宅與居住正義",
    "lat": 25.027663,
    "lng": 121.563224,
    "category": "culture",
    "region": "north",
    "link": "/culture/%E7%A4%BE%E6%9C%83%E4%BD%8F%E5%AE%85%E8%88%87%E5%B1%85%E4%BD%8F%E6%AD%A3%E7%BE%A9",
    "desc": "探索台灣的文化與故事",
    "city": "台北"
  },
  {
    "title": "野百合學運",
    "lat": 25.033849,
    "lng": 121.52159,
    "category": "culture",
    "region": "north",
    "link": "/culture/%E9%87%8E%E7%99%BE%E5%90%88%E5%AD%B8%E9%81%8B",
    "desc": "探索台灣的文化與故事",
    "city": "台北"
  },
  {
    "title": "半導體產業",
    "lat": 24.784,
    "lng": 120.993,
    "category": "technology",
    "region": "north",
    "link": "/technology/%E5%8D%8A%E5%B0%8E%E9%AB%94%E7%94%A2%E6%A5%AD",
    "desc": "探索台灣的文化與故事",
    "city": "新竹"
  },
  {
    "title": "台灣災難醫療體系",
    "lat": 23.998479,
    "lng": 121.597156,
    "category": "culture",
    "region": "east",
    "link": "/culture/%E5%8F%B0%E7%81%A3%E7%81%BD%E9%9B%A3%E9%86%AB%E7%99%82%E9%AB%94%E7%B3%BB",
    "desc": "探索台灣的文化與故事",
    "city": "花蓮"
  },
  {
    "title": "科技園區發展",
    "lat": 24.797181,
    "lng": 120.96296,
    "category": "technology",
    "region": "north",
    "link": "/technology/%E7%A7%91%E6%8A%80%E5%9C%92%E5%8D%80%E7%99%BC%E5%B1%95",
    "desc": "探索台灣的文化與故事",
    "city": "新竹"
  }
]